{"locations":[{"name":"Brant Avenue Neighbourhood Group","address":"35 Algonquin Road Guelph, ON N1E 3P2","lat":43.574193,"lng":-80.2519958},{"name":"Chalmers Community Services Centre (Downtown)","address":"40 Baker Street Guelph, ON N1H 4G1","lat":43.546579,"lng":-80.2519087},{"name":"Chalmers Community Services Centre (West)","address":"577 Willow Road (in portable behind Three Willows Church) Guelph, ON N1H 7H3","lat":43.53206000000001,"lng":-80.29014339999999},{"name":"Society of St. Vincent de Paul Sacred Heart Church","address":"98 Alice Street Guelph, ON N1E 2Z7","lat":43.5463794,"lng":-80.2374464},{"name":"Society of St. Vincent de Paul St. Joseph's Church","address":"409 Paisley Road Guelph, ON N1H 2R4","lat":43.5378662,"lng":-80.2675008},{"name":"Society of St. Vincent de Paul - St. John's Church","address":"45 Victoria Road N. Guelph, ON N1E 2K9","lat":43.5601017,"lng":-80.2360523},{"name":"Grange Hill East Neighbourhood Group - Free Shelf","address":"525 Grange Road - Community Room - Ken Danby Public School Guelph, ON N1E 7C8","lat":43.5715575,"lng":-80.2213259},{"name":"Grange Hill East Neighbourhood Group - Grab 'n Go Food Cupboard","address":"470 Auden road, Auden Complex Community Room Guelph, ON N1E 6V7","lat":43.5684109,"lng":-80.233177},{"name":"Guelph Food Bank","address":"100 Crimea Street Guelph, ON N1H 2Y5","lat":43.5381181,"lng":-80.2617521},{"name":"Holy Rosary Church","address":"175 Emma Street Guelph, ON N1E 1V6","lat":43.56492350000001,"lng":-80.2532154},{"name":"HOPE House","address":"75 Norfolk Street Guelph, ON N1H 4J2","lat":43.5445319,"lng":-80.2514731},{"name":"Onward Willow Better Beginnings","address":"15 Willow Road, Unit K45 Guelph, ON N1H 7B6","lat":43.5449535,"lng":-80.2702879},{"name":"Parkwood Gardens Neighbourhood","address":"21 Imperial Road South Guelph, ON N1K 1X6","lat":43.5241519,"lng":-80.2899693},{"name":"Parkwood Gardens Neighbourhood Group - Bread Program","address":"West End Community Center (Ecott Community Room) Guelph, ON N1H 6Y2","lat":43.5167935,"lng":-80.2701137},{"name":"Salvation Army","address":"210 Victoria Road South Guelph, ON N1E 5P9","lat":43.5506801,"lng":-80.2225459},{"name":"Trinity United Church","address":"131 Ontario Street, Tytler Public School (Lower Level) Guelph, ON N1E 1N4","lat":43.5654237,"lng":-80.2581807},{"name":"Two Rivers Neighbourhood Group","address":"131 Ontario Street, Tytler Public School (Lower Level) Guelph, ON N1E 3B2","lat":43.5450317,"lng":-80.236488},{"name":"University of Guelph CSA Food Bank","address":"620 Gordon Street, Federal Annex Building Guelph, ON N1G 4Y2","lat":43.52619190000001,"lng":-80.2269031},{"name":"Waverly Neighbourhood Group","address":"140 Waverly Drive, Waverly Drive Public School - Community Room 9 Guelph, ON N1E 1J2","lat":43.5724764,"lng":-80.2571354},{"name":"West Willow Woods Neighbourhood Group","address":"495 Willow Road, Westwood Public School - Portable 1 Guelph, ON N1H 6S3","lat":43.5345992,"lng":-80.2858766},{"name":"The Childrens Foundation of Guelph and Wellington","address":"87 Waterloo Avenue Guelph, ON N1H 3H6","lat":43.5389941,"lng":-80.2528669},{"name":"Avalon Childrens Residence","address":"58 Dawson Rd Guelph, ON N1H 1A8","lat":43.5478276,"lng":-80.27777780000001},{"name":"Brant Avenue Public School","address":"64 Brant Avenue Guelph, ON N1E 1G2","lat":43.579237,"lng":-80.2535638},{"name":"Cadence - Centennial CVI","address":"75 Norfolk Street Guelph, ON N1H 2W6","lat":43.5450416,"lng":-80.25090689999999},{"name":"Centennial CVI","address":"289 College Avenue W. Guelph, ON N1G 1S9","lat":43.5218831,"lng":-80.24955659999999},{"name":"Gateway Dr. P.S.","address":"33 Gateway Drive Guelph, ON N1H 6X1","lat":43.5176728,"lng":-80.2751651},{"name":"GCVI - Food for Thought","address":"155 Paisley Street Guelph, ON N1H 2P3","lat":43.5427033,"lng":-80.25966149999999},{"name":"Give Yourself Credit","address":"238 Willow Road Guelph, ON N1H 8H1","lat":43.5404581,"lng":-80.2769069},{"name":"GTS - Guelph c/o CMHA WWD","address":"147 Delhi Street Guelph, ON N1E 4J3","lat":43.5546241,"lng":-80.2511246},{"name":"Jean Little Public School","address":"56 Youngman Drive Guelph, ON N1G 4L2","lat":43.5195192,"lng":-80.2255088},{"name":"John F. Ross Vocational Institute","address":"21 Meyer Drive Guelph, ON N1E 4H1","lat":43.5605603,"lng":-80.2457233},{"name":"John Galt Public School","address":"50 Laurine Avenue Guelph, ON N1E 4M9","lat":43.5557222,"lng":-80.2431096},{"name":"Ken Danby Public School","address":"525 Grange Road Guelph, ON N1E 7C4","lat":43.5697721,"lng":-80.2213259},{"name":"King George Public School","address":"72 Lemon Street Guelph, ON N1E 2H5","lat":43.5547268,"lng":-80.24711719999999},{"name":"Mitchell Woods Public School","address":"670 Willow Road Guelph, ON N1H 8K2","lat":43.5272195,"lng":-80.2944971},{"name":"New Way","address":"131 Ontario Street Guelph, ON N1E 3B3","lat":43.54483,"lng":-80.2350067},{"name":"Onward Willow BBBF","address":"20 Shelldale Crescent Guelph, ON N1H 1C8","lat":43.5448948,"lng":-80.2765586},{"name":"Ottawa Crescent Public School","address":"75 Ottawa Crescent Guelph, ON N1E 2A8","lat":43.5623902,"lng":-80.2445036},{"name":"Our Lady of Lourdes H.S.","address":"54 Westmount Road Guelph, ON N1H 5H7","lat":43.5485708,"lng":-80.2690685},{"name":"Paisley Road Public School","address":"406 Paisley Road Guelph, ON N1H 2R3","lat":43.5371811,"lng":-80.2664556},{"name":"Priory Park Public School","address":"275 Scottsdale Drive Guelph, ON N1G 3A1","lat":43.520957,"lng":-80.24223839999999},{"name":"Sacred Heart","address":"125 Huron Street Guelph, ON N1E 5L5","lat":43.5480987,"lng":-80.2375335},{"name":"St. James Catholic High School","address":"57 Victoria Road N Guelph, ON N1E 5G9","lat":43.5601377,"lng":-80.233874},{"name":"St. John Bosco","address":"19 Northumberland Guelph, ON N1H 3A1","lat":43.5436673,"lng":-80.2483369},{"name":"St. John Catholic School - Guelph","address":"63 Victoria Street North Guelph, ON N1E 5G9","lat":43.5601377,"lng":-80.233874},{"name":"St. Josephs Catholic School - Guelph","address":"63 Victoria Street North Guelph, ON N1E 5G9","lat":43.5601377,"lng":-80.233874},{"name":"St. Peter Catholic School Guelph","address":"150 Westwood Road Guelph, ON N1H 7G1","lat":43.5304966,"lng":-80.28404789999999},{"name":"Waverley Drive Public School","address":"140 Waverley Dr Guelph, ON N1E 1H2","lat":43.5736004,"lng":-80.25896469999999},{"name":"Waverley Neighbourhood Group","address":"140 Waverley Drive Guelph, ON N1E 1H2","lat":43.5736004,"lng":-80.25896469999999},{"name":"West Willow Village","address":"495 Willow Rd, Portable #6 Guelph, ON N1H 5T1","lat":43.5404789,"lng":-80.2658459},{"name":"Westwood Public School","address":"495 Willow Road Guelph, ON N1H 7C7","lat":43.5355001,"lng":-80.2868345},{"name":"Willow Road Public School","address":"125 Willow Road Guelph, ON N1H 1W4","lat":43.54370369999999,"lng":-80.2765586},{"name":"YMCA-YWCA of Guelph - TAPPS","address":"130 Woodland Glen Dr Guelph, ON N1G 4M3","lat":43.507318,"lng":-80.2373929},{"name":"Young Parent Education Program","address":"20 Shelldale Crescent Guelph, ON N1H 1C8","lat":43.5448948, "lng":-80.2765586}]}